TimeSeconds,MissionState,WaypointIndex,PositionXMetres,PositionYMetres,PositionZMetres,GroundVelocityXMetresPerSecond,GroundVelocityYMetresPerSecond,GroundVelocityZMetresPerSecond,GroundSpeedMetresPerSecond,AirVelocityXMetresPerSecond,AirVelocityYMetresPerSecond,AirVelocityZMetresPerSecond,AirSpeedMetresPerSecond,YawDegrees,PitchDegrees,RollDegrees,TargetDistanceMetres,DistanceTravelledMetres,WindXMetresPerSecond,WindYMetresPerSecond,WindZMetresPerSecond,WindSpeedMetresPerSecond,BirdActive,BirdPositionXMetres,BirdPositionYMetres,BirdPositionZMetres,BirdDistanceMetres,BirdClearanceMetres,BirdLidarHits,APFAvoidanceActive,APFEmergencyActive,APFObstacleCount,RepulsiveSpeedMetresPerSecond,TangentialSpeedMetresPerSecond,MapCoveragePercent,MapFreeCells,MapOccupiedCells,MapUpdateCount,FPVTargetVisible,FPVBirdVisible,FPVForwardObstacleDistanceMetres
0,TAKEOFF,1,1.00220048349295,0.0266750282084928,0.00716953316204317,0.0440096698590445,0.533500564169857,0.143390663240863,0.554184613026483,-0.00265799879625127,-0.0322211882503234,0.0839924405535186,0.09,3.50000000000001,0.365501071142523,-4.43073143433611,3.49293301815666,0.0277092306513241,0.0466676686552958,0.56572175242018,0.0593982226873447,0.570742605136059,0,12.5,-5,4,13.1685060161703,NaN,0,0,0,0,0,0,14.4618055555556,823,10,1,0,0,4.3183463854968
0.1,TAKEOFF,1,1.00688563348617,0.0770127330833085,0.0338149360610278,0.0486252421151788,0.4921244591351,0.306048549908986,0.581563936597832,-0.00902787225524183,-0.10066424866601,0.250344383103383,0.269976116699909,10.5,0.471420331392964,-4.78985061995909,3.46704734182836,0.0849982811250512,0.0576531143704206,0.592788707801109,0.0557041668056022,0.598184994707009,0,12.5,-5,4,13.1756730414453,NaN,0,0,0,0,0,0,14.4618055555556,823,10,1,0,0,4.2721545401676
0.2,TAKEOFF,1,1.01228460603951,0.121676994224899,0.0767352446490473,0.0545131685069892,0.427769717037521,0.469786814240229,0.637697629907008,-0.0177206228197009,-0.173273739111368,0.414818290620292,0.449902237571556,17.5,0.631689814081579,-5.03069112531734,3.42544855277337,0.147321146068106,0.0722337913266901,0.601043456148888,0.0549685236199372,0.607858943652048,0,12.5,-5,4,13.175400811603,NaN,0,0,0,0,0,0,21.5972222222222,1224,20,2,0,0,4.27177965952801
0.3,TAKEOFF,1,1.01743390921645,0.157932963978585,0.135977410364694,0.0508121055007936,0.339291101464601,0.633810823011033,0.720705543869623,-0.0279796231759483,-0.247052681364338,0.578681634303552,0.629833565763693,24.5,0.737930352455471,-5.07207085923632,3.36777296531079,0.217091508874234,0.0787917286767419,0.586343782828939,0.0551291887074808,0.59417707429483,0,12.5,-5,4,13.1675459772625,NaN,0,0,0,0,0,0,21.5972222222222,1224,20,2,0,0,4.22166870177174
0.4,TAKEOFF,1,1.02262300835958,0.184792840913503,0.211486246108284,0.0508353384796777,0.247016177780473,0.795450094738677,0.834471136075651,-0.0411643996636386,-0.319085947555171,0.740615859119701,0.807478916447025,31.5,0.941540838742992,-4.89012390352306,3.29377942553765,0.297475210236155,0.0919997381433163,0.566102125335644,0.0548342356189761,0.576144392946672,0,12.5,-5,4,13.151619515286,NaN,0,0,0,0,0,0,21.8402777777778,1232,26,3,0,0,4.20026361850474
0.5,TAKEOFF,1,1.0276915654481,0.202843413574947,0.301002213488109,0.0484987490886468,0.158374217085963,0.925621214464732,0.940323962242758,-0.0549612690050526,-0.374444221804414,0.871760496696063,0.950366024189168,31.5,0.914930934666985,-3.44509767690087,3.20554193722929,0.388976242865831,0.103460018093699,0.532818438890377,0.0538607177686687,0.545436010072752,0,12.5,-5,4,13.1288242058568,NaN,0,0,0,0,0,0,21.8402777777778,1232,26,3,0,0,4.16862519296797
0.6,TAKEOFF,1,1.03242153361745,0.21287072735348,0.400870258610113,0.0458400298774141,0.0851279430817113,1.02123833703516,1.02580496004982,-0.0681345013053418,-0.410799233745088,0.973005736046908,1.05836594951551,31.5,0.88489863085918,-2.25551416360008,3.10660107776545,0.48947304853017,0.113974531182756,0.495927176826799,0.0482326009882486,0.511136324547395,0,12.5,-5,4,13.1008821076329,NaN,0,0,0,0,0,0,21.875,1235,25,4,0,0,4.17239250011391
0.7,TAKEOFF,1,1.03675022658917,0.215655825640149,0.508892412376797,0.0435293827104884,0.0108377115609345,1.09880056775052,1.09971585004487,-0.08055973296815,-0.429989125073479,1.05076097497513,1.13819117233795,31.5,0.862828011829103,-1.04180336717192,2.99909696659244,0.597631917917863,0.124089115678638,0.440826836634413,0.0480395927753942,0.460471726603313,0,12.5,-5,4,13.0689323683114,NaN,0,0,0,0,0,0,21.9618055555556,1238,27,5,0,0,4.18091166606024
0.8,TAKEOFF,1,1.04068191912807,0.21161324153729,0.623118719551244,0.0397239181015762,-0.055139151328117,1.15463688197725,1.15663505259899,-0.0922823854660514,-0.432894714890688,1.11063807414322,1.19558805806354,31.5,0.817896573746977,0.0417323231137791,2.88494039528278,0.712006239917642,0.132006303567628,0.377755563562571,0.0439988078340328,0.402567789415497,0,12.5,-5,4,13.0338102886382,NaN,0,0,0,0,0,0,21.9618055555556,1238,27,5,0,0,4.15078797634661
0.9,TAKEOFF,1,1.04413031937152,0.202336736990991,0.741896318225137,0.0330994441347894,-0.105595528044895,1.19811468283149,1.20321435412046,-0.103125908600406,-0.423264910801885,1.15732471098396,1.23660366504184,31.5,0.727690731180711,0.874853711855013,2.76586759618823,0.831201580121755,0.136225352735195,0.31766938275699,0.0407899718475254,0.348044544954173,0,12.5,-5,4,12.9967879595608,NaN,0,0,0,0,0,0,21.9791666666667,1239,27,6,0,0,4.15674473879369
1,TAKEOFF,1,1.04750570238017,0.188883162857693,0.863960502478848,0.0338075164286001,-0.144751290410219,1.22899782666274,1.23795458001666,-0.114138166024708,-0.403504689758121,1.19440441464135,1.26587734844851,31.5,0.764542621805056,1.53073043918174,2.64322490028021,0.954054789032014,0.147945682453308,0.258753399347902,0.034593412021392,0.300063244643445,0,12.5,-5,4,12.9583516638813,NaN,0,0,0,0,0,0,22.0833333333333,1244,28,7,0,0,4.19164241063152
1.1,TAKEOFF,1,1.05046063969014,0.172166055108876,0.988682736482409,0.0286510092084946,-0.174383547476875,1.25260439068973,1.26500919424899,-0.12451650604643,-0.375638375188826,1.22377807101785,1.28617312843049,31.5,0.705574391632624,2.04129077038986,2.51771758240101,1.07992874922815,0.153167515254925,0.201254827711951,0.0288263196718772,0.254548129265488,0,12.5,-5,4,12.9194150380915,NaN,0,0,0,0,0,0,22.0833333333333,1244,28,7,0,0,4.21488943260366
1.2,TAKEOFF,1,1.05267544365295,0.153573726287932,1.11535088229858,0.0221027241506664,-0.188829887813428,1.27118292133609,1.2853214681328,-0.133503616563945,-0.342847295462343,1.24747496613211,1.30060035167141,31.5,0.624647539455417,2.31095040759955,2.39016966057311,1.20797346312408,0.155606340714611,0.154017407648915,0.023707955203977,0.220219804444191,0,12.5,-5,4,12.8810621527453,NaN,0,0,0,0,0,0,22.1180555555556,1245,29,8,0,0,4.228917053242
1.3,TAKEOFF,1,1.05405109873663,0.133752698477323,1.24354566531171,0.0113831479996417,-0.199886861242918,1.28529911064539,1.30079903796926,-0.140876565024553,-0.306497771968282,1.26673161297705,1.31087606969922,31.5,0.474518523787528,2.53886846595388,2.26106113808499,1.33769909360283,0.152259713024194,0.106610910725364,0.0185674976683444,0.186798443423829,0,12.5,-5,4,12.8438001977093,NaN,0,0,0,0,0,0,22.1354166666667,1247,28,9,0,0,4.24576443454231
1.4,TAKEOFF,1,1.05430861798708,0.113942670408306,1.37287006256923,0.00108283612090562,-0.197647136915802,1.29601831282777,1.31100306271573,-0.14593644674643,-0.269416377271503,1.28268093065377,1.31876950248855,31.5,0.329871010999507,2.55652116170455,2.13087168286635,1.46853232033484,0.147019282867335,0.0717692403557008,0.0133373821740019,0.16414438509835,0,12.5,-5,4,12.808515626592,NaN,0,0,0,0,0,0,22.1354166666667,1247,28,9,0,0,4.22768469135737
1.5,TAKEOFF,1,1.05404521286228,0.09551926751072,1.50313101347413,-0.00354606676216218,-0.184469317272124,1.30528645559746,1.3182618233001,-0.150139605549096,-0.234836632683121,1.2959044902777,1.3255408681464,31.5,0.280956254543115,2.39766551885345,1.99988263776852,1.60008996894804,0.146593538786934,0.0503673154109972,0.00938196531975354,0.155288613069498,0,12.5,-5,4,12.7753102635767,NaN,0,0,0,0,0,0,22.1875,1249,29,10,0,0,4.22458633593369
1.6,TAKEOFF,1,1.0533370360858,0.0796129084740381,1.63418600039464,-0.0103287428139366,-0.149947831694043,1.31252293365403,1.32110086160204,-0.153695719511086,-0.205461685187809,1.30683110881402,1.33178242413704,31.5,0.197539923521229,1.88208316307285,1.86827324975162,1.73211228143169,0.143366976697149,0.0555138534937661,0.00569182484000667,0.153844970041329,0,12.5,-5,4,12.7446316616099,NaN,0,0,0,0,0,0,22.2569444444444,1252,30,11,0,0,4.21795543881516
1.7,TAKEOFF,1,1.05153050402573,0.0669678136112442,1.7655107348765,-0.0203422057422535,-0.118952607863892,1.31396888120182,1.31949905229934,-0.154975497916625,-0.18322976105798,1.3167995930858,1.33848859488708,31.5,0.0561703940799057,1.41542856371623,1.73654631142785,1.86405911602361,0.134633292174371,0.0642771531940886,-0.00283071188398012,0.149216918324351,0,12.5,-5,4,12.7174902752225,NaN,0,0,0,0,0,0,22.2569444444444,1252,30,11,0,0,4.22923392351657
1.8,TAKEOFF,1,1.04843022430172,0.0573553782631767,1.89701739640904,-0.0327372515225955,-0.0856125306281294,1.31562838667338,1.31881738116337,-0.15340681566471,-0.167750531883556,1.32603543704646,1.34537870963628,31.5,-0.132795405474243,0.897016800914843,1.60473934128159,1.99595737463826,0.120669564142115,0.0821380012554268,-0.0104070503730788,0.146342412368911,0,12.5,-5,4,12.694007624889,NaN,0,0,0,0,0,0,22.2569444444444,1252,30,12,0,0,4.25522889910385
1.9,TAKEOFF,1,1.0447017166086,0.0522315839878117,2.02859557303497,-0.0388555676194383,-0.042599006713625,1.31655133795554,1.31781328570497,-0.150510063406861,-0.162963248978308,1.33481240515716,1.35312026688899,31.5,-0.222672161682949,0.18375364396846,1.47300962981439,2.12769099306695,0.111654495787423,0.120364242264683,-0.0182610672016208,0.165190023369564,0,12.5,-5,4,12.6741997046903,NaN,0,0,0,0,0,0,22.2916666666667,1253,31,13,0,0,4.26450764344101
2,TAKEOFF,1,1.04051790250805,0.0510049543848833,2.15970687081239,-0.0423581089095689,-0.00272937188581968,1.3067148166113,1.30740401973253,-0.146168122424722,-0.167485233650244,1.3293780885235,1.34783623847648,31.5,-0.323012324388659,-0.462174710476744,1.34187513500437,2.25887821556978,0.103810013515153,0.164755861764425,-0.0226632719121963,0.196047537055482,0,12.5,-5,4,12.6577667774886,NaN,0,0,0,0,0,0,22.2916666666667,1253,31,13,0,0,4.24040044924497
2.1,TAKEOFF,1,1.03597387280122,0.0536277315194763,2.28791118870078,-0.0460787268929566,0.0347037479250424,1.27284690969727,1.27415338743733,-0.140017331543087,-0.181231574749698,1.29854724992683,1.31858814537036,31.5,-0.449879871126678,-1.09015466151609,1.21380778527285,2.38719280496148,0.0939386046501305,0.215935322674741,-0.0257003402295609,0.236881895699467,0,12.5,-5,4,12.6449316483584,NaN,0,0,0,0,0,0,22.3263888888889,1255,31,14,0,0,4.23417185659485
2.2,TAKEOFF,1,1.03096376287737,0.0605324345077007,2.41099204083887,-0.0518073566206225,0.074352727716339,1.21538724909133,1.21876104941563,-0.13176570024226,-0.205955335379628,1.24946427924183,1.27316172776006,31.5,-0.612972647971318,-1.80430784489482,1.09112843669077,2.51057070281887,0.0799583436216376,0.280308063095967,-0.0340770301504945,0.29347434459456,0,12.5,-5,4,12.6361674183042,NaN,0,0,0,0,0,0,22.3263888888889,1255,31,14,0,0,4.27940632219893
2.3,TAKEOFF,1,1.02565115519468,0.0711943183006293,2.5277299396131,-0.0520408806547672,0.1160817556336,1.14997079670206,1.15698576504548,-0.121761550292382,-0.241012590835466,1.18710766811859,1.21743072072984,31.5,-0.687146287317836,-2.59464706645924,0.975210583948855,2.62791996573421,0.0697206696376152,0.357094346469066,-0.0371368714165299,0.365727345536938,0,12.5,-5,4,12.6311231629242,NaN,0,0,0,0,0,0,22.2916666666667,1254,30,15,0,0,4.29052092705003
2.4,TAKEOFF,1,1.01997475562482,0.0840819634145844,2.63711728416131,-0.0580639107323021,0.133639700813394,1.0754426034405,1.08526852928568,-0.109855451038297,-0.283186909167423,1.11604859282724,1.15664493566448,31.5,-0.858233275527833,-3.01108287525503,0.867199716747573,2.73821242884616,0.0517915403059953,0.416826609980816,-0.0406059893867444,0.421990086150663,0,12.5,-5,4,12.6291851803408,NaN,0,0,0,0,0,0,22.2916666666667,1254,30,15,0,0,4.26078882156466
2.5,TAKEOFF,1,1.01404605655144,0.098533509435957,2.7386871231989,-0.0597074341515815,0.149356704782436,0.995665246328109,1.00857408538096,-0.0962862687537565,-0.331114014503122,1.03959214032201,1.09528962122819,31.5,-0.958023586634289,-3.41141019759311,0.767791274090538,2.84097931153948,0.036578834602175,0.480470719285558,-0.0439268939939017,0.483859168816285,0,12.5,-5,4,12.6298492513192,NaN,0,0,0,0,0,0,22.2916666666667,1254,30,16,0,0,4.2590471402221
2.6,TAKEOFF,1,1.00788288096171,0.113824772631981,2.83197935872355,-0.0619031236064569,0.154679648513905,0.912077459654538,0.927169392714458,-0.0810942507398517,-0.383186217814485,0.961038558314565,1.03778758211561,31.5,-1.06719103404653,-3.64631890898306,0.677694470870446,2.93571861578632,0.0191911271333948,0.53786586632839,-0.0489610986600271,0.540430549380618,0,12.5,-5,4,12.6326652730659,NaN,0,0,0,0,0,0,22.2916666666667,1254,30,16,0,0,4.31252949588496
2.7,TAKEOFF,1,1.00195055361503,0.128378138998749,2.91701336619554,-0.0579688343552444,0.138887939458787,0.830054324734003,0.843587830337325,-0.0654385604797555,-0.435531527391296,0.882490052062512,0.986285257184123,31.5,-1.07063428624186,-3.52119505353621,0.596957424299956,3.02219331398298,0.00746972612451108,0.574419466850083,-0.0524357273285088,0.576856157291554,0,12.5,-5,4,12.6363864873259,NaN,0,0,0,0,0,0,22.2569444444444,1254,28,17,0,0,4.29491263238403
2.8,NAVIGATION,2,0.999970297064625,0.140639316893427,2.99389805466227,0.0185848286592889,0.122330680735302,0.749362096613953,0.759508882862549,0.02491701662331,-0.465649778067868,0.807971655257406,0.932881969614299,31.5,-11.3180553657173,-0.830846828229932,4.03437184960635,3.1001673692544,-0.00633218796402118,0.587980458803169,-0.0586095586434531,0.59092825021586,0,12.5,-5,4,12.6368151398681,NaN,0,0,0,0,0,0,22.2569444444444,1254,28,17,1,0,4.28566542205071
2.9,NAVIGATION,2,1.01340049087773,0.153199293009876,3.06311934315749,0.171978703431892,0.126970115379615,0.672624839999006,0.705777769568662,0.188848299284235,-0.47950928944681,0.734938375793434,0.897623114130994,31.5,-11.2573803713802,-0.998829074754068,4.01339138109353,3.17190587821747,-0.0168695958523427,0.606479404826425,-0.0623135357944286,0.609905589813735,0,12.5,-5,4,12.6243881674167,NaN,0,0,0,0,0,0,22.2916666666667,1254,30,18,1,0,4.26648097153826
3,NAVIGATION,2,1.04221458326209,0.163871472403145,3.12462143770603,0.327723632292751,0.098599970626166,0.595395394559623,0.686746248066521,0.352043261982189,-0.49312005559313,0.660227981634937,0.896104254687464,24.5,-11.2087077746563,-0.900656192853077,3.97892301124823,3.24080279197366,-0.0243196296894379,0.591720026219296,-0.0648325870753148,0.595757751241286,0,12.5,-5,4,12.5981229898281,NaN,0,0,0,0,0,0,22.2916666666667,1254,30,18,1,0,4.21212383537258
3.1,NAVIGATION,2,1.08660326395708,0.171424808045076,3.17842458828545,0.484228380959871,0.0646045842627921,0.518538605158573,0.712413617412374,0.514478456952785,-0.504448051924445,0.583515689851409,0.927171224780866,17.5,-11.1543490846422,-0.700105960899867,3.93032711410946,3.31110624661136,-0.0302500759929143,0.569052636187237,-0.0649770846928356,0.573548595486381,0,12.5,-5,4,12.557238779155,NaN,0,0,0,0,0,0,22.2743055555556,1254,29,19,1,0,4.20596201094284
3.2,NAVIGATION,2,1.14638032440276,0.17463609032209,3.22441288088602,0.636587066013006,0.0213578155398564,0.441181923233889,0.774816583642887,0.676243604570586,-0.510170325422819,0.504801252457309,0.986105206429371,10.5,-11.1034393934481,-0.278542331066727,3.86740618870254,3.38670185708436,-0.0396565385575804,0.531528140962676,-0.0636193292234205,0.536788808318919,0,12.5,-5,4,12.5013228813877,NaN,0,0,0,0,0,0,22.2743055555556,1254,29,19,1,0,4.11053396889628
3.3,NAVIGATION,2,1.22113462790702,0.174030891177673,3.26265229331964,0.78494259855738,-0.0159839377835528,0.361943546690232,0.864519230721784,0.835991971189456,-0.508640809065858,0.424699164811716,1.0667555620348,3.49999999999999,-10.8930725322711,0.26497899246966,3.79030924666496,3.47075068776627,-0.0510493726320767,0.492656871282305,-0.0627556181214838,0.499254543167719,0,12.5,-5,4,12.430892219998,NaN,0,0,0,0,0,0,22.3263888888889,1256,30,20,1,0,4.03436693451029
3.4,NAVIGATION,2,1.30930176132235,0.169047596418514,3.29413299139999,0.910409314363872,-0.0605213459562331,0.300579562172627,0.960653957568872,0.966810225910484,-0.496670414114178,0.356223785150501,1.14380894308813,-3.50000000000004,-8.42831879842372,0.999070033509075,3.70029888036941,3.5645351953907,-0.0564009115466124,0.436149068157944,-0.0556442229778738,0.443286986081414,0,12.5,-5,4,12.3470250812499,NaN,0,0,0,0,0,0,22.3263888888889,1256,30,20,1,0,3.97840742066046
3.5,NAVIGATION,2,1.40751452444094,0.159779463844228,3.32000999449659,1.00474411250062,-0.102768695187867,0.245831925972099,1.03947365149022,1.06879875370104,-0.474411451381348,0.301273122140537,1.20754399308636,-5.84010037439605,-6.56740983651009,1.69715049277418,3.60053853905916,3.66654158525481,-0.0640546412004229,0.371642756193481,-0.0554411961684379,0.381175893155626,0,12.5,-5,4,12.2527117222508,NaN,0,0,0,0,0,0,22.4479166666667,1263,30,21,1,0,3.93610993169789
3.6,NAVIGATION,2,1.5141800227721,0.147831022517462,3.34117003652224,1.08712309725477,-0.122915593521564,0.201253390898541,1.11240631024088,1.14679423112415,-0.445763013340046,0.257705536658914,1.25708146761707,-6.4507533153063,-4.96826913667294,2.02458171168858,3.49256666109009,3.77594935257772,-0.059671133869378,0.322847419818481,-0.0564521457603726,0.333133524974084,0,12.5,-5,4,12.149998425071,NaN,0,0,0,0,0,0,22.4479166666667,1263,30,21,1,0,3.88160248402075
3.69999999999999,NAVIGATION,2,1.62766993797134,0.13358464781505,3.35905114945096,1.14973410677758,-0.148784681255342,0.172411063894736,1.17207123188704,1.20557842153555,-0.411604138408542,0.22200834606931,1.29310672527507,-7.37354881927415,-3.75492850459061,2.45385299384518,3.37791673726058,3.89172331424885,-0.0558443147579721,0.2628194571532,-0.0495972821745731,0.273226179104774,0,12.5,-5,4,12.0404346990877,NaN,0,0,0,0,0,0,22.8125,1284,30,22,1,0,3.96095206728388
3.79999999999999,NAVIGATION,2,1.74616051927205,0.11701254293328,3.37431894423118,1.19571103741772,-0.168072156524059,0.147894409749875,1.21648916609909,1.2502525746731,-0.371759669235423,0.192556736010057,1.31848960888192,-8.00121840258478,-2.86203310155824,2.7795978033771,3.2583675405526,4.01233899367632,-0.0545415372553787,0.203687512711363,-0.0446623262601818,0.215541424110756,0,12.5,-5,4,11.9256177083348,NaN,0,0,0,0,0,0,22.8125,1284,30,22,1,0,4.06950053602004
3.89999999999999,NAVIGATION,2,1.86863809206563,0.0985686618223362,3.3874188013556,1.23319681044713,-0.186324595798498,0.125420675865487,1.25348377501705,1.28376425858192,-0.327215281722698,0.168262530133186,1.33545227966111,-8.59187437763739,-2.14186384127916,3.09742155794112,3.13493504013145,4.13689002304901,-0.0505674481347886,0.1408906859242,-0.0428418542676995,0.155700599446987,0,12.5,-5,4,11.8066300925254,NaN,0,0,0,0,0,0,23.2465277777778,1310,29,23,1,0,4.14227922825856
3.99999999999999,NAVIGATION,2,1.99430341575868,0.0801041467358896,3.39882356455468,1.26453457730174,-0.184061264608405,0.110690351276021,1.28264515755003,1.30843465184689,-0.282394852670441,0.147972066763355,1.346715940171,-8.28161493937877,-1.54820048495524,3.07660535305123,3.00846560590837,4.26441638474059,-0.04390007454515,0.0983335880620363,-0.0372817154873346,0.113958928548414,0,12.5,-5,4,11.6849703452066,NaN,0,0,0,0,0,0,23.2465277777778,1310,29,23,1,0,4.15105762743566
4.09999999999999,NAVIGATION,2,2.12279041483016,0.0626456910919772,3.40885317429229,1.2925490579289,-0.169612809503163,0.0977097528826244,1.30728679642565,1.32544398847212,-0.23971830818644,0.130901764377826,1.35329298593242,-7.47583759776639,-1.02918415171062,2.85652615514805,2.87933451051492,4.39447311047396,-0.0328949305432179,0.0701054986832767,-0.0331920114952013,0.0842529941792671,0,12.5,-5,4,11.5614149107113,NaN,0,0,0,0,0,0,23.6284722222222,1331,30,24,1,0,4.0981654592198
4.19999999999999,NAVIGATION,2,2.25382452341521,0.0472512341281126,3.41787037805664,1.31425955819364,-0.150563892199311,0.0881250549729891,1.32578795335134,1.33571408291703,-0.201727112788066,0.116161132150573,1.35584635853743,-6.53541378033177,-0.633946382686661,2.56202619747889,2.74780961897342,4.52671695503784,-0.0214545247233976,0.0511632205887552,-0.0280360771775838,0.0621610279486106,0,12.5,-5,4,11.4366836020815,NaN,0,0,0,0,0,0,23.6284722222222,1331,30,24,1,0,4.01885279238789
4.29999999999999,NAVIGATION,2,2.38648539259866,0.0340173030838581,3.426060741013,1.32979566213884,-0.126324085566062,0.0804513226761867,1.33820278469211,1.34170585218511,-0.16861726981024,0.103290784145368,1.35619886578459,-5.42653484358702,-0.35461047257705,2.18233936209057,2.6147815958563,4.66028921324947,-0.0119101900462729,0.042293184244178,-0.0228394614691817,0.0495197643436695,0,12.5,-5,4,11.311671591541,NaN,0,0,0,0,0,0,24.1840277777778,1362,31,25,1,0,3.9844482750675
4.39999999999999,NAVIGATION,2,2.52064148491832,0.023859476374215,3.43348736592408,1.34479915412441,-0.0919716853481462,0.0724672930430847,1.34988705616452,1.34387079548819,-0.142646853391448,0.0921298008039428,1.35455702720288,-3.912403265441,-0.0926493657077808,1.62994788443587,2.48036526572451,4.79503785243955,0.000928358636221083,0.0506751680433022,-0.0196625077608581,0.0543640388254972,0,12.5,-5,4,11.1869431470557,NaN,0,0,0,0,0,0,24.1840277777778,1362,31,25,1,0,3.86077051689303
4.49999999999999,NAVIGATION,2,2.65591016601188,0.0178656924843957,3.44031718797987,1.35569536257268,-0.0489617485143708,0.0670435256109779,1.35823488515242,1.34326372877602,-0.126600170365876,0.0822649425337329,1.35172207533649,-2.06837235920416,0.0925681391227705,0.921559707174133,2.34491756162664,4.93061601741388,0.0124316337966643,0.0776384218515054,-0.0152214169227549,0.0800872124598117,0,12.5,-5,4,11.0633776767094,NaN,0,0,0,0,0,0,24.7916666666667,1395,33,26,1,0,3.70565458063301
4.59999999999999,NAVIGATION,2,2.79261537152511,0.0156482011265828,3.44694389988993,1.36972850633254,-0.0111556988447692,0.0660285014777886,1.37136442774489,1.33917500037329,-0.119726365080931,0.0727114529295796,1.34648098371549,-0.466632859219913,0.324326949298496,0.286301640778028,2.20807760596964,5.06750417827301,0.0305535059592436,0.108570666236161,-0.00668295145179098,0.112985698800656,0,12.5,-5,4,10.9405627941383,NaN,0,0,0,0,0,0,24.7916666666667,1395,33,26,1,0,3.62608823830113
4.69999999999999,NAVIGATION,2,2.93020975376145,0.0178850456123247,3.45299415554084,1.37782153865734,0.0319007776036845,0.0587717888401926,1.37944335699704,1.33305818592525,-0.123992021724266,0.064360762646921,1.34035833129879,1.32633535716024,0.44900960798932,-0.461115450615307,2.07040119003398,5.2052530757678,0.0447633527320909,0.155892799327951,-0.00558897380672839,0.162288506242231,0,12.5,-5,4,10.8193932862178,NaN,0,0,0,0,0,0,25.3125,1425,33,27,1,0,3.50801603054171
4.79999999999999,NAVIGATION,2,3.06838311447405,0.0241513591698791,3.45887173549181,1.3829450359383,0.0730229911454509,0.05892514260365,1.38612463440092,1.32573282288675,-0.13878102409987,0.0562106688175204,1.33416165797792,3.02255490139117,0.520137289988645,-1.20684134348496,1.93220563469321,5.34369710791762,0.057212213051546,0.211804015245321,0.0027144737861296,0.219411819563649,0,12.5,-5,4,10.7000146613842,NaN,0,0,0,0,0,0,25.3125,1425,33,27,1,0,3.38141848766187
4.89999999999999,NAVIGATION,2,3.20720837887012,0.0350564492530404,3.46448716655053,1.38873845891611,0.117649235742112,0.0552225822128409,1.39480657566906,1.31704680326797,-0.166189028271387,0.0484334944368309,1.32837377213627,4.8423428277446,0.600840151703914,-2.05736206083207,1.79348596670488,5.48306584874551,0.0716916556481353,0.283838264013498,0.00678908777600992,0.292830915923503,0,12.5,-5,4,10.5827474483565,NaN,0,0,0,0,0,0,25.8854166666667,1458,33,28,1,0,3.2582758080379
4.99999999999999,NAVIGATION,2,3.34620825137764,0.0490842491944322,3.4698747357005,1.39162643493628,0.148769518211749,0.0534994590667343,1.40057798643376,1.30817902079786,-0.203258722346926,0.0409082144775854,1.32450743322848,6.10193582549487,0.633546809894045,-2.73318192605493,1.65479422976982,5.62287807386231,0.0834474141384149,0.352028240558674,0.0125912445891489,0.362002613965048,0,12.5,-5,4,10.4673868720163,NaN,0,0,0,0,0,0,25.8854166666667,1458,33,28,1,0,3.2135065783526
5.09999999999999,NAVIGATION,2,3.48540914572509,0.065840106524951,3.47523586158445,1.39197636798407,0.17055190408079,0.0530158208441717,1.40338762937098,1.29901496147738,-0.249924558317189,0.0330737581685428,1.32325206535698,6.9853486567507,0.62675623305733,-3.31782918724174,1.51622347892119,5.76318659696291,0.0929614065066883,0.420476462397979,0.0199420626756289,0.43109159629269,0,12.5,-5,4,10.3537897243386,NaN,0,0,0,0,0,0,26.5798611111111,1497,34,29,1,0,3.13837343847775
5.19999999999999,NAVIGATION,2,3.62450140197128,0.0834671369378197,3.48028617395345,1.39012004820588,0.179221512638347,0.0494082035479236,1.40249608541134,1.28353791473176,-0.30229509683988,0.0254406695577604,1.31890072855955,7.34634605670963,1.50919149409454,-3.70284566001453,1.37816972505746,5.90348263031276,0.106582133474124,0.481516609478227,0.0239675339901632,0.493753419294361,0,12.5,-5,4,10.2413971682052,NaN,0,0,0,0,0,0,26.5798611111111,1497,34,29,1,0,3.09931337911388
5.29999999999999,NAVIGATION,2,3.76121931113101,0.100624052894265,3.48514789277559,1.36054580112887,0.168648280443787,0.0473687445727505,1.37177655521168,1.24166977956763,-0.356264361231291,0.0173031589872901,1.29188526421118,7.06613155633424,3.34254078056033,-3.70552246156459,1.24294946808975,6.04135879125841,0.118876021561239,0.524912641675078,0.0300655855854603,0.539044273997168,0,12.5,-5,4,10.1315214232329,NaN,0,0,0,0,0,0,27.1701388888889,1532,33,30,1,0,3.09878059054701
5.39999999999999,NAVIGATION,2,3.89336147046557,0.117177819942624,3.48957712474961,1.30803721013338,0.159586034502147,0.043323020232667,1.31844830372059,1.1784049046574,-0.411226993985653,0.00930748279969764,1.24813155922729,6.9559485718042,4.668361548422,-3.71997865921437,1.11287380814947,6.17460809912975,0.129632305475981,0.570813028487801,0.0340155374329693,0.586335317801415,0,12.5,-5,4,10.0259796095224,NaN,0,0,0,0,0,0,27.1701388888889,1532,33,30,1,0,3.06653538705343
5.49999999999999,NAVIGATION,2,4.01874389610992,0.132042055140869,3.49362707025003,1.2339123847604,0.143960217740235,0.0399615068171239,1.24292447058701,1.10109759103314,-0.464248902875491,0.00142419973632773,1.1949665171648,6.65459788292239,5.48699859605936,-3.60147708458192,0.990120831000424,6.30093368442422,0.132814793727258,0.608209120615726,0.0385373070807962,0.6237332986702,0,12.5,-5,4,9.92602510068813,NaN,0,0,0,0,0,0,27.8472222222222,1572,32,31,1,0,3.05810487140728
5.59999999999999,NAVIGATION,2,4.13618294312893,0.144244496858459,3.49736519305625,1.154295789723,0.11322714115548,0.0362107162689612,1.16040095296376,1.01491461105076,-0.5125497008317,-0.00642949873104107,1.13701372111374,5.60233280965405,6.05419396533267,-3.19924073109252,0.875781550857853,6.41906602963283,0.13938117867224,0.62577684198718,0.0426402150000022,0.642527786847197,0,12.5,-5,4,9.83205619153071,NaN,0,0,0,0,0,0,27.8472222222222,1572,32,31,1,0,3.09468543185459
5.69999999999999,NAVIGATION,2,4.24528325566214,0.15226632802512,3.50072223280826,1.06937619173732,0.068837906759878,0.0326144223503696,1.07208572297506,0.923132176322934,-0.55179470549621,-0.0139987048162736,1.07556793170534,3.68316335805752,6.3737772143485,-2.52043772703865,0.769923970567499,6.52851671323291,0.146244015414388,0.620632612256088,0.0466131271666433,0.639331631522009,0,12.5,-5,4,9.74348372672553,NaN,0,0,0,0,0,0,28.5243055555556,1610,33,32,1,0,3.16458898175799
5.79999999999999,NAVIGATION,2,4.34535337710787,0.155135639543126,3.50351323413317,0.977889548781582,0.0140172102842385,0.0264775010510494,0.978348358133394,0.829767773198009,-0.57879797169538,-0.0207352962658242,1.01190493722874,0.82122975141935,6.42225993499713,-1.60828970686006,0.672786452252569,6.62867670307689,0.148121775583573,0.592815181979619,0.0472127973168735,0.612861280077346,0,12.5,-5,4,9.66023727011996,NaN,0,0,0,0,0,0,28.5243055555556,1610,33,32,1,0,3.78892177570748
5.89999999999999,NAVIGATION,2,4.43589304771543,0.152908870577144,3.50587839119322,0.881388812233866,-0.0331643149070939,0.0237708805149429,0.882332797120642,0.738395697733454,-0.59278896570601,-0.0268691016659376,0.947285022006793,-2.15487108836585,6.22469635015241,-0.762022827850832,0.584493226479129,6.71928194311476,0.142993114500411,0.559624650798916,0.0506399821808805,0.579819962032712,0,12.5,-5,4,9.58261169674775,NaN,0,0,0,0,0,0,29.0798611111111,1641,34,33,1,0,3.62672976913402
5.99999999999999,NAVIGATION,3,4.5229926312288,0.147073198022014,3.50882683395447,0.901233095289632,-0.0630309297335356,0.0380397731002956,0.904235043827614,0.758655449041528,-0.583923154334071,-0.0134050200970527,0.957446622580943,-4.00066887808113,-8.98117527883132,1.59077416862882,4.50627080684808,6.80663022402463,0.142577646248104,0.520892224600535,0.0514447931973482,0.542497614378222,0,12.5,-5,4,9.50611698572397,NaN,0,0,0,0,0,0,29.0798611111111,1641,34,33,1,0,3.50723516825349
6.09999999999999,NAVIGATION,3,4.62155518174711,0.138253412295815,3.51454591628796,1.01115283662122,-0.0979525904873516,0.0632823866041455,1.01785530869797,0.865227192328772,-0.554940121863194,0.0141118014536959,1.02799600005979,-5.53310283027262,-6.82687595608766,2.14992480456077,4.40744355606396,6.90575557598866,0.145925644292445,0.456987531375842,0.0491705851504496,0.482234013668871,0,12.5,-5,4,9.41845032638694,NaN,0,0,0,0,0,0,29.7395833333333,1679,34,34,1,0,3.40991450137746
6.19999999999999,NAVIGATION,3,4.72884718351165,0.127130894438286,3.5227054658222,1.0900834652328,-0.116292756166839,0.0860075058684152,1.09963778462571,0.946830247949596,-0.520755476775606,0.0351336952624203,1.08116056234348,-6.08942133062721,-5.2684263883437,2.42825032518905,4.29961843870745,7.01393165338453,0.143253217283202,0.404462720608767,0.0508738106059949,0.432087631424239,0,12.5,-5,4,9.32234398519355,NaN,0,0,0,0,0,0,29.7395833333333,1679,34,34,1,0,3.35825292212155
6.29999999999999,NAVIGATION,3,4.84216857275187,0.113388598001424,3.53263715749363,1.14586294829078,-0.143272782398141,0.103540462548963,1.15941779088757,1.01092482338897,-0.480552798583107,0.0514156271361124,1.12051040043539,-7.12698142086894,-4.15248401835315,2.85612583859071,4.18555219512606,7.12851569941338,0.134938124901815,0.337280016184965,0.0521248354128508,0.366991969035516,0,12.5,-5,4,9.21995407520426,NaN,0,0,0,0,0,0,30.3298611111111,1711,36,35,1,0,3.29425337943788
6.39999999999999,NAVIGATION,3,4.96032137835929,0.0979367961155153,3.54391180089514,1.19422305786745,-0.154685125349283,0.115594279272635,1.20973477975429,1.06103690440647,-0.436522138994763,0.0640922329092694,1.14911213754982,-7.38030697430332,-3.19870916890087,3.02396757778324,4.06652326042002,7.24820701197314,0.133186153460978,0.28183701364548,0.051502046363366,0.3159479617183,0,12.5,-5,4,9.11283324439646,NaN,0,0,0,0,0,0,30.3298611111111,1711,36,35,1,0,3.23960251078359
6.49999999999998,NAVIGATION,3,5.08250031179351,0.0808509345786735,3.55616487660933,1.22795980984593,-0.177303389939113,0.124054550722538,1.24688063511939,1.09962860446784,-0.38877623724137,0.0741253331594827,1.16868498553864,-8.21607460763273,-2.52527188226941,3.38747331075693,3.94339071073048,7.37218309314823,0.128331205378086,0.211472847302257,0.0499292175630549,0.252354096828989,0,12.5,-5,4,9.00174080168428,NaN,0,0,0,0,0,0,31.0243055555556,1750,37,36,1,0,3.21685393231372
6.59999999999998,NAVIGATION,3,5.20673043118305,0.0629170908157396,3.56891131090011,1.24553594553669,-0.176982343996037,0.128967597523207,1.26464033737708,1.13192269887389,-0.339157640910818,0.0827591725853317,1.18453618866675,-8.08720951065728,-2.1463034165967,3.36858589517908,3.81820508091162,7.49834691331984,0.113613246662799,0.162175296914781,0.0462084249378755,0.20333227801286,0,12.5,-5,4,8.88879901503996,NaN,0,0,0,0,0,0,31.0243055555556,1750,37,36,1,0,3.18682344905689
6.69999999999998,NAVIGATION,3,5.33284741565466,0.044578261412665,3.58227273049507,1.26538752015683,-0.185276633251558,0.135185946509128,1.28600476170629,1.15852335529225,-0.288658370430609,0.0897212388253022,1.1973094505071,-8.32999335831726,-1.7413102345346,3.5030538938744,3.69113686686762,7.62648887359422,0.106864164864586,0.103381737179051,0.0454647076838257,0.155482387938761,0,12.5,-5,4,8.77441405875591,NaN,0,0,0,0,0,0,31.9444444444444,1803,37,37,1,0,3.16583108015093
6.79999999999998,NAVIGATION,3,5.4596608416584,0.0274450135678908,3.59602261023619,1.27187569140782,-0.16644911789857,0.137985154014349,1.29012130668852,1.18254061198957,-0.241146398878674,0.0955920491959465,1.21065755875322,-7.45587004183093,-1.57331753475496,3.18436535672941,3.56341862770809,7.75519216737416,0.0893350794182488,0.0746972809801036,0.042393104818402,0.123925846927223,0,12.5,-5,4,8.66052980829505,NaN,0,0,0,0,0,0,31.9444444444444,1803,37,37,1,0,3.1691394284588
6.89999999999998,NAVIGATION,3,5.5874321391865,0.0120917862565419,3.61003890076575,1.28013144029694,-0.149717388978542,0.140724389902043,1.29651654633196,1.20341627684879,-0.197958873256311,0.10068528442022,1.22373852492446,-6.67070600952455,-1.38171204101623,2.9064343307669,3.43479770508659,7.8846442813794,0.0767151634481428,0.0482414842777684,0.0400391054818226,0.0990736447092867,0,12.5,-5,4,8.5473228652677,NaN,0,0,0,0,0,0,32.7430555555556,1849,37,38,1,0,3.19369380868049
6.99999999999998,NAVIGATION,3,5.71593202364195,-0.000356357853851148,3.62414331157802,1.28637582941591,-0.112620437850008,0.140696191472858,1.29893862665715,1.2218107824736,-0.161808639116287,0.105454728743192,1.23698194153177,-5.00340954647953,-1.23031171411186,2.28679227185266,3.30550614135913,8.01451936618756,0.0645650469423115,0.0491882012662791,0.0352414627296662,0.0884877682270342,0,12.5,-5,4,8.43571473596225,NaN,0,0,0,0,0,0,32.7430555555556,1849,37,38,1,0,3.219202356551
7.09999999999998,NAVIGATION,3,5.84460933486456,-0.00941706518804945,3.63855325713706,1.28700709096541,-0.081820822849005,0.144296253079541,1.29765299980378,1.23915222361708,-0.13387846374424,0.109374892914258,1.25115328539299,-3.63765459551033,-1.17807220607905,1.77360978932987,3.17603883456529,8.14432061809246,0.0478548673483372,0.0520576408952355,0.0349213601652838,0.0788643626760384,1,12.5,-4.86500000000002,4,8.24630549339129,7.39630549339129,0,0,0,0,0,0,33.6284722222222,1901,36,39,1,1,3.29709860072343
7.19999999999998,NAVIGATION,3,5.97378967572947,-0.0144444449609883,3.65281308686772,1.29090145233994,-0.0388670448410861,0.142958181687129,1.29937456052492,1.25467621864639,-0.115790373567035,0.113576361999393,1.2651163639178,-1.72456625481747,-1.07355226114672,1.05141177240416,3.04609525809061,8.27438779880822,0.0362252336935495,0.0769233287259487,0.029381819687736,0.0899597542604206,1,12.5,-4.73000000000002,4,8.05905851461107,7.20905851461107,0,0,0,0,0,0,33.6284722222222,1901,36,39,1,1,3.40097481786506
7.29999999999998,NAVIGATION,3,6.1030618350969,-0.0153784045476078,3.6669873146057,1.29443791982131,-0.00026983897590642,0.141962800286216,1.30219930799763,1.2694407134642,-0.107788716326307,0.117915882337617,1.27945390212982,-0.0119438978160824,-0.976895526756826,0.395439101519307,2.91605635666255,8.40444123793799,0.0249972063571098,0.107518877350401,0.0240469179485987,0.112975322859362,1,12.5,-4.59500000000002,4,7.87430309879938,7.02430309879938,0,0,0,0,0,0,34.5833333333333,1955,37,40,1,1,3.51548628975105
7.39999999999998,NAVIGATION,3,6.2327372628754,-0.0116653800076481,3.68117284426089,1.29788202301801,0.0485051877733523,0.140898192744089,1.30640835868147,1.28271467795604,-0.111390400262956,0.122168072149899,1.29332509608661,2.14029449006428,-0.8854265428355,-0.444849512743443,2.78559327479906,8.53494805838791,0.0151673450619718,0.159895588036309,0.0187301205941905,0.161701777501606,1,12.5,-4.46000000000002,4,7.69206824350967,6.84206824350967,0,0,0,0,0,0,34.5833333333333,1955,37,40,1,1,NaN
7.49999999999998,NAVIGATION,3,6.36241873995627,-0.00357204898536209,3.69503570172983,1.29560619030984,0.0934969047247916,0.138747469300418,1.30636439472284,1.29552427902601,-0.126175421476838,0.127181005540298,1.30785259211463,4.12757193972754,-0.893704395716113,-1.23844474845086,2.65515552954761,8.66562536261203,8.19112838285887e-05,0.21967232620163,0.0115664637601203,0.219976636696282,1,12.5,-4.32500000000003,4,7.5124993499281,6.6624993499281,0,0,0,0,0,0,35.6770833333333,2017,38,41,1,1,NaN
7.59999999999998,NAVIGATION,3,6.49162883282142,0.00942741740860543,3.70894061554437,1.29346334813011,0.142274302638244,0.137776132148521,1.30853799055929,1.30904128512049,-0.153765042382898,0.132071390045624,1.324641697395,6.27700675480591,-0.897858934923464,-2.12070579058301,2.5252188724567,8.79623571537711,-0.0155779369903857,0.296039345021141,0.00570474210289705,0.296503811111903,1,12.5,-4.19000000000003,4,7.3362408822193,6.4862408822193,3,0,0,0,0,0,35.6770833333333,2017,38,41,1,1,6.84347312464718
7.69999999999998,NAVIGATION,3,6.62116936699534,0.0257976575997047,3.72274530312495,1.29574888490318,0.169974749251243,0.137480900709068,1.3140614849278,1.32127394805727,-0.190792636332803,0.13720601595733,1.34201049426171,7.47331839245094,-0.827430890615346,-2.67506645510362,2.39507220488199,8.92753571803189,-0.0255250631540902,0.360767385584046,0.000274884751738095,0.3616693391923,1,12.5,-4.05500000000003,4,7.16173367982674,6.31173367982674,4,0,0,0,0,0,36.7881944444444,2081,38,42,1,1,6.68388095777881
7.79999999999998,NAVIGATION,3,6.75118173452335,0.0447525860037224,3.73662458130066,1.30262875073917,0.195830665470021,0.139521036737705,1.32463482948437,1.33188762898301,-0.23574165841866,0.14217903139018,1.36004178712237,8.54953521462113,-0.679463519046091,-3.22752972528168,2.26463087417585,9.05965491977517,-0.0292588782438373,0.43157232388868,-0.0026579946524741,0.432571170604718,1,12.5,-3.92000000000003,4,6.98838616054354,6.13838616054354,4,0,0,0,0,0,36.7881944444444,2081,38,42,1,1,6.51158639316445
7.89999999999998,NAVIGATION,3,6.88155983309598,0.0651676567079191,3.7505257404961,1.30467876909416,0.20728349217995,0.139165404266111,1.32835241799755,1.34116572913572,-0.286316131044562,0.147140237122321,1.37925802128713,9.0275307201571,-0.615126391154993,-3.56918068227358,2.13407426543411,9.1923521440022,-0.0364869600415606,0.493599623224512,-0.00797483285621036,0.495010590047869,1,12.5,-3.78500000000003,4,6.81563630925209,5.96563630925209,4,0,0,0,0,0,37.5173611111111,2123,38,43,1,1,6.31675185807044
7.99999999999998,NAVIGATION,3,7.01224951432546,0.0851154478493309,3.76430095644727,1.30730930473948,0.198015902128542,0.137329979334915,1.3293334566535,1.34922535398881,-0.33822290702137,0.152482199343477,1.39930504601278,8.61302333569156,-0.539236382891868,-3.58998218154096,2.00348463230783,9.32527124865443,-0.0419160492493225,0.536238809149911,-0.0151522200085622,0.538087916045672,1,12.5,-3.65000000000003,4,6.64244283685722,5.79244283685722,4,0,0,0,0,0,37.5173611111111,2123,38,43,1,1,6.13177531771821
8.09999999999998,NAVIGATION,3,7.1431149403544,0.104397542733231,3.77788073436357,1.3100635102647,0.185581633208111,0.136323419893637,1.33014699124674,1.3563612971259,-0.391389071613397,0.158424349716701,1.42056314477837,8.06278751739761,-0.457580385843777,-3.58691809214198,1.87303442035395,9.45824686466488,-0.0462977868612001,0.576970704821508,-0.0221009298230638,0.579247037445611,1,12.5,-3.51500000000003,4,6.46881697706502,5.61881697706502,5,0,0,0,0,0,38.4548611111111,2177,38,44,1,1,5.94443144110013
8.19999999999998,NAVIGATION,3,7.27449010150337,0.121462328573815,3.79183476609568,1.31379107863459,0.166541663806181,0.140588305889792,1.33174629559692,1.36170332563777,-0.442383042160801,0.163603061339691,1.44107760537874,7.22452027922356,-0.357391001839967,-3.49597759180766,1.74226010448465,9.59145922545529,-0.0479122470031812,0.608924705966982,-0.0230147554498982,0.611240181858399,1,12.5,-3.38000000000002,4,6.29360984668691,5.44360984668691,4,0,0,0,0,0,38.4548611111111,2177,38,44,1,1,5.8026877990953
8.29999999999998,NAVIGATION,3,7.40630619088524,0.135678371492161,3.80577464691091,1.32035680450448,0.1344867918191,0.140184108385965,1.33457123175162,1.36538350078752,-0.49000269632682,0.168992299974527,1.46045648482967,5.81588448632666,-0.205403867453127,-3.20923623910105,1.61120826260421,9.72477284146404,-0.0450266962830455,0.62448948814592,-0.0288081915885612,0.626773033948911,1,12.5,-3.24500000000002,4,6.1165698197823,5.2665698197823,5,0,0,0,0,0,39.4791666666667,2235,39,45,1,1,5.61963126990326
8.39999999999998,NAVIGATION,3,7.53882405903683,0.145695209121582,3.81968435318104,1.32673424469728,0.0841154748307305,0.139883581229006,1.33673729111442,1.36672359618202,-0.531200059496992,0.174700264376497,1.47669464478731,3.62771956466175,-0.0550592352453387,-2.6298485047528,1.47945123505248,9.85840445415581,-0.0399893514847374,0.615315534327723,-0.034816683147491,0.617595787261032,1,12.5,-3.11000000000002,4,5.9367778924579,5.0867778924579,4,0,0,0,0,0,40.2430555555556,2279,39,46,1,1,5.43516942300217
8.49999999999999,NAVIGATION,3,7.67095794855029,0.150666796638017,3.83378443080713,1.3175716693584,0.0354751840367841,0.141972677379005,1.32567335105617,1.35509021338052,-0.562528308416092,0.17861493704161,1.47804292221286,1.54229740907114,1.30919854097667,-1.91960830359098,1.34784304485832,9.99138903549397,-0.0375185440221233,0.598003492452876,-0.0366422596626045,0.600298653442234,1,12.5,-2.97500000000002,4,5.75474305887911,4.90474305887911,5,0,0,0,0,0,40.2430555555556,2279,39,46,1,1,5.22022274040211
8.59999999999999,NAVIGATION,3,7.80024053239016,0.150328218969553,3.84749682554433,1.28272921991766,-0.0173577653612562,0.136193514259103,1.29005589684135,1.31786469423818,-0.580703328920151,0.179830862543135,1.45131762466438,-0.775273522135111,2.93562242693927,-1.0041611863786,1.21872005471193,10.1214047681517,-0.0351354743205229,0.563345563558894,-0.0436373482840322,0.56612449487942,1,12.5,-2.84000000000002,4,5.5725271761359,4.7225271761359,5,0,0,0,0,0,41.0069444444444,2322,40,47,1,1,5.07280859881623
8.69999999999999,NAVIGATION,3,7.92465515183604,0.145110512687531,3.86047126351583,1.23025863465187,-0.0651228466382604,0.12748357234943,1.23855938675089,1.26169839054489,-0.585914145061587,0.179418537754189,1.40262939715973,-3.03008242129468,4.14217847604123,-0.116140582873181,1.0940255352002,10.2466101700688,-0.0314397558930145,0.520791298423326,-0.0519349654047581,0.524317914433276,1,12.5,-2.70500000000002,4,5.39225172654777,4.54225172654777,6,0,0,0,0,0,41.8402777777778,2367,43,48,1,1,4.88797039303009
8.79999999999999,NAVIGATION,3,8.04295244181832,0.134493399197297,3.87275217683101,1.16615250960845,-0.118206400151502,0.121579382962063,1.17841672385633,1.19158956149413,-0.57606334018671,0.177515665866505,1.33538251695792,-5.78798545988354,5.01685690203343,0.919074442199826,0.974792547955928,10.3660237980916,-0.0254370518856803,0.457856940035208,-0.0559362829044424,0.46196199940277,1,12.5,-2.57000000000001,4,5.21495440926346,4.36495440926346,6,0,0,0,0,0,41.8402777777778,2367,43,48,1,1,4.70994792100487
8.89999999999999,NAVIGATION,3,8.15402586342438,0.118839051658963,3.88458379006031,1.0907855524923,-0.171016556586083,0.117918973417966,1.11038942197971,1.11231902521268,-0.551225608089935,0.173731028128492,1.25350937571236,-8.91046374197891,5.55751047035668,2.00353357531948,0.862041681980001,10.478830279426,-0.0215334727203852,0.380209051503851,-0.0558120547105259,0.384886475137629,1,12.5,-2.43500000000001,4,5.04211324734773,4.19211324734773,6,0,0,0,0,0,42.7083333333333,2416,44,49,1,1,4.54780968835946
8.99999999999999,NAVIGATION,3,8.25751187013591,0.0995521209983309,3.89570496696175,1.01744088901175,-0.198259549704408,0.110382810747378,1.04243809244986,1.02694190104067,-0.514122015589536,0.168891362874727,1.16079946910763,-11.0265364657377,5.98279622792912,2.70392449990698,0.756357522406427,10.5846874874752,-0.00950101202892188,0.315862465885128,-0.0585085521273484,0.321376130502323,1,12.5,-2.30000000000001,4,4.8751854700454,4.0251854700454,6,0,0,0,0,0,43.3854166666667,2456,43,50,1,1,4.36472724782497
9.09999999999999,NAVIGATION,3,8.35330291268123,0.0789755017941501,3.90654112952596,0.937544310663126,-0.209703775294648,0.106382974810333,0.966582818572274,0.937811501487786,-0.470174950816104,0.162137351780054,1.06152881145071,-12.6080199167498,6.15571778652314,3.15183811069411,0.658170808453628,10.6832643834066,-0.000267190824659854,0.260471175521456,-0.055754376969721,0.266371648678585,1,12.5,-2.16500000000001,4,4.71585170961732,3.86585170961732,6,0,0,0,0,0,43.3854166666667,2456,43,50,1,1,4.21486841565482
9.2,NAVIGATION,3,8.441207394158,0.0572942088867428,3.91665486734228,0.858897244537647,-0.221112714779005,0.0985490458378784,0.892360478588591,0.847477379186546,-0.419762720670931,0.154706487646656,0.958307230077037,-14.4366289949001,6.2068643558551,3.60346296732866,0.567871652623538,10.7743707877218,0.011419865351101,0.198650005891925,-0.0561574418087772,0.206750807582475,1,12.5,-2.03000000000001,4,4.56481554313289,3.71481554313289,6,0,0,0,0,0,43.9930555555556,2491,43,51,1,1,4.06414643310769
9.3,NAVIGATION,4,8.52691576865378,0.0353070696997357,3.92535353442771,0.890718212975704,-0.220395841352592,0.0803094021895985,0.921087868714054,0.868039562190936,-0.360127873282005,0.140569869730062,0.950234000085862,-13.8979008765561,-9.07375968945046,4.49549250531729,7.47354043360901,10.8632899314308,0.0226786507847679,0.139732031929413,-0.0602604675404633,0.153852805943652,1,12.5,-1.895,4,4.41781119871902,3.56781119871902,7,0,0,0,0,0,44.5486111111111,2523,43,52,1,1,3.91511569339613
9.4,NAVIGATION,4,8.62461077824349,0.0151368302837412,3.93193075170637,1.00248479161284,-0.194473773636889,0.0618433787405726,1.02304467621979,0.973489168955225,-0.292398610259165,0.123437261333441,1.02392131867645,-10.9785458870932,-6.61078524253183,5.05108302925582,7.37571886114136,10.9632709901656,0.0289956226576127,0.0979248366222767,-0.0615938825928687,0.119263683213568,1,12.5,-1.76,4,4.26314271505184,3.41314271505184,7,1,0,1,0.0155409860424473,0.0500091776855665,44.5486111111111,2523,43,52,1,1,3.75815191118164
9.5,NAVIGATION,4,8.73154037865302,-0.000595908642634174,3.93704963212603,1.08736415826496,-0.141321909796574,0.0477557222921624,1.09754877061544,1.04474472193832,-0.2005287028457,0.110183946999692,1.06950633324885,-7.40507621646547,-4.41023598120657,6.63394391804253,7.26873223960506,11.0714894969806,0.0426194363266365,0.0592067930491257,-0.0624282247075297,0.0960163732708961,1,12.5,-1.625,4,4.10413685426749,3.25413685426749,7,1,0,3,0.0461845696568541,0.174525820777883,45.0173611111111,2550,43,53,1,1,3.59747059613382
9.6,NAVIGATION,4,8.84431389259231,-0.0093422411262706,3.94100858510546,1.1412199153359,-0.0659429997573761,0.0365327909628605,1.14370713873431,1.09066391960378,-0.101612655985058,0.100016951109302,1.09994377487716,-3.30703916112074,-2.74409227545014,6.82710652973163,7.15593536389534,11.1846938242003,0.0505559957321232,0.035669656227682,-0.0634841601464411,0.088648021237738,1,12.5,-1.49,4,3.94459989122317,3.09459989122317,8,1,0,4,0.0792174126803563,0.250384926867212,45.6076388888889,2583,44,54,1,1,3.46056246624418
9.7,NAVIGATION,4,8.96149016609027,-0.00863100769325243,3.9442802039405,1.1807987499288,0.0323290796795365,0.0318942065878178,1.18167173852987,1.11425256420122,-0.00461222770438339,0.0917245071700884,1.1180310526497,1.56830890165052,-1.25431895441103,6.51584559313562,7.03873567283292,11.3019449709008,0.0665461857275812,0.0369413073839199,-0.0598303005822706,0.0968128085218472,1,12.5,-1.355,4,3.78640541989284,2.93640541989284,7,1,0,5,0.119075455827669,0.319577082707289,45.6076388888889,2583,44,54,1,1,3.29044064597978
9.8,NAVIGATION,4,9.08123961644024,0.00192053141053358,3.94708779101337,1.2006964952363,0.127662603226314,0.0280715849606899,1.2077904734752,1.12125094577848,0.0859015741931556,0.0847284355300217,1.12772411149419,6.06910313010888,-0.165788635947402,6.2949934889733,6.91896297398799,11.4222108954368,0.0794455494578246,0.0417610290331583,-0.0566568505693318,0.106139425243401,1,12.5,-1.21999999999999,4,3.63095194778726,2.78095194778726,8,1,0,7,0.157374356037708,0.394955768833031,46.2152777777778,2619,43,55,1,1,3.12188062845207
9.90000000000001,NAVIGATION,4,9.20158074777275,0.0229848477502527,3.94960299318446,1.20291628325681,0.241657952178275,0.0250867575946593,1.22720637864296,1.11225347547091,0.171550535903093,0.0785851000581981,1.12814582302861,11.3591437487059,0.878428035061529,5.78876970499336,6.79864490105023,11.5444459371226,0.0906628077858982,0.0701074162751821,-0.0534983424635389,0.126478722237183,1,12.5,-1.08499999999999,4,3.47990514879407,2.62990514879407,9,1,0,7,0.212120707214667,0.469830244319409,46.8576388888889,2655,44,56,1,1,2.97965141756542
10,NAVIGATION,4,9.32132659889525,0.0559303970244215,3.95162952644177,1.19470401746321,0.358347533690077,0.0202336969438073,1.24745342467625,1.09219582601888,0.248980989171479,0.0737626532654336,1.12264160993553,16.6964427535499,1.56519898386898,5.16647627559452,6.67908274470736,11.668690686324,0.102508191444323,0.109366544518598,-0.0535289563216263,0.159167583188308,1,12.5,-0.94999999999999,4,3.33439653569589,2.48439653569589,9,1,0,8,0.259829452081755,0.546116222769483,46.8576388888889,2655,44,56,1,1,2.85437980621118
10.1,NAVIGATION,4,9.43927224865675,0.100724194114329,3.95382989470293,1.17471303156198,0.476148397553104,0.0219426905378275,1.26773399602675,1.06328440775535,0.312497426679986,0.0686078675104497,1.11037624836881,22.0642711933877,2.11339960744852,4.23327305295283,6.5616633309816,11.7949062730966,0.111428623806627,0.163650970873118,-0.0466651769726222,0.203409973238873,1,12.5,-0.814999999999988,4,3.19511139808179,2.34511139808179,9,1,0,9,0.313428316211325,0.608253948857029,47.4479166666667,2686,47,57,1,1,2.68391144765827
10.2,NAVIGATION,4,9.55446379927203,0.156398896462291,3.95602004900205,1.142664834157,0.58006497268085,0.0221834879204385,1.28165923820905,1.02769052139374,0.368926930343784,0.0635719922231469,1.09375330211646,26.9142752436582,2.51958684448198,3.72671718494609,6.44758340510607,11.9228899563954,0.114974312763254,0.211138042337066,-0.0413885043027084,0.243949531267692,1,12.5,-0.679999999999986,4,3.06229992977371,2.21229992977371,10,1,0,9,0.373200073170097,0.682134967724794,47.9513888888889,2714,48,58,1,0,2.55610661093357
10.3,NAVIGATION,4,9.66596955409912,0.22281823906658,3.95806070868737,1.10598550044397,0.690403476541151,0.0194051220585911,1.30393153438917,0.987419817143762,0.411342370439517,0.0589917622073819,1.07129849669238,31.97417450935,2.84118652590461,2.67784185756506,6.33808713741108,12.0527229864873,0.118565683300203,0.279061106101634,-0.0395866401487908,0.305777736719633,1,12.5,-0.544999999999984,4,2.93650001203681,2.08650001203681,10,1,0,9,0.435162855868929,0.734995434006124,47.9513888888889,2714,48,58,1,0,2.47318736262691
10.4,NAVIGATION,4,9.7734596977107,0.299629003358882,3.96011794977548,1.06388145848125,0.794428652306088,0.022134233778261,1.32794976019803,0.94378383634969,0.441215319273279,0.0544443119754975,1.04324640944642,36.7496779939143,3.0825803458326,1.76529582684654,6.23387297381146,12.1848820538767,0.120097622131561,0.353213333032808,-0.0323100781972366,0.374469008900486,1,12.5,-0.409999999999982,4,2.81765610398892,1.96765610398892,10,1,0,10,0.499333647734604,0.798819460133419,48.3854166666667,2737,50,59,1,0,2.44599041756528
10.5,NAVIGATION,4,9.87723943655639,0.384853693449111,3.96259297900302,1.02994286741744,0.869745803639949,0.0249993346465514,1.34828225525152,0.899873476031867,0.460550023751217,0.0489354473400536,1.01206386915515,40.179762300486,3.08107842278942,1.35485962329611,6.13495791084516,12.3192064133793,0.130069391385569,0.409195779888733,-0.0239361126935022,0.430037405750984,1,12.5,-0.274999999999981,4,2.70475121871371,1.85475121871371,11,1,0,11,0.548855792003335,0.854961249418981,48.90625,2763,54,60,0,0,2.51974960682061
10.6,NAVIGATION,4,9.97732406238601,0.476941514052661,3.96508414739002,0.991388205436122,0.939171647502409,0.0253005359851563,1.36584555293466,0.853197703204672,0.474461429488972,0.0434565031185216,0.977214631741531,43.4506778444295,3.14065616140832,0.828983178967537,6.04163204557385,12.4552477764008,0.13819050223145,0.464710218013438,-0.0181559671333653,0.485161664577515,1,12.5,-0.139999999999978,4,2.59725428765488,1.74725428765488,11,1,0,11,0.606810491385836,0.908343264719497,48.90625,2763,54,60,0,0,5.79923760558936
10.7,NAVIGATION,4,10.0735376843702,0.575571073024451,3.96771716431259,0.95129819483515,1.00181149723662,0.0276809276941533,1.38179620973937,0.809174115386523,0.4820544775903,0.0376891928519859,0.942634469788928,46.4815112545592,2.89456650569019,0.406739994660966,5.95443362715233,12.5930710584186,0.142124079448627,0.51975701964632,-0.0100082651578326,0.538931144769175,1,12.5,-0.0049999999999768,4,2.49516017952439,1.64516017952439,11,1,0,12,0.653489592595314,0.960329512712529,49.1493055555556,2777,54,61,0,0,5.72126763086872
10.8,NAVIGATION,4,10.1658890847399,0.679445669399653,3.97043882712125,0.911588000429139,1.05121797442078,0.0274640415064319,1.39169184299096,0.76859088833912,0.486447427604058,0.0317605327909719,0.910149320113842,49.0690490210079,2.8179444495153,0.298469483274201,5.87361647132033,12.7321001170854,0.14299711209002,0.564770546816718,-0.00429649128454005,0.582608277022477,1,12.5,0.130000000000026,4,2.39809052608539,1.54809052608539,12,1,0,12,0.711187485573114,1.01827904847781,49.4965277777778,2795,56,62,0,0,5.58511231870621
10.9,NAVIGATION,4,10.2542094186286,0.786557801930712,3.97320763684213,0.873935708024721,1.07812127826273,0.0272149616211777,1.38811014207791,0.731964060010257,0.485996869908741,0.0257662849844485,0.878992744082505,50.9714355043351,2.47905567778005,-0.178148835849312,5.7994396635777,12.8709615775336,0.141971648014464,0.592124408353985,0.00144867663672922,0.60890833667515,1,12.5,0.265000000000027,4,2.30571370877977,1.45571370877977,13,1,0,12,0.751516476774431,1.04016486517447,49.4965277777778,2795,56,62,0,0,5.49879920656539
11,NAVIGATION,4,10.3391426691329,0.89626796148058,3.97583556955371,0.840110588296777,1.10272290389144,0.025673363530867,1.38652180831392,0.700632473116767,0.48609010830455,0.0201632793835091,0.852980664266631,52.6979993773079,2.19650137884302,-0.0276512359294885,5.73142093192495,13.0097349092763,0.13947811518001,0.61663279558689,0.00551008414735796,0.632234537363139,1,12.5,0.400000000000029,4,2.21724383270156,1.36724383270156,13,1,0,12,0.796620016683294,1.08733348692196,49.9131944444444,2818,57,63,0,0,5.32305540642411
11.1,NAVIGATION,4,10.4207103652351,1.00642147405165,3.9784043316495,0.807882147154233,1.10181642111652,0.0257741706244852,1.36650550580813,0.674332225753575,0.491589334464719,0.014740135492214,0.834626441016317,53.7501040886614,1.78427353330429,0.540746417384426,5.66937592552465,13.1468264767754,0.133549921400658,0.610227086651803,0.0110340351322712,0.624767499731676,1,12.5,0.535000000000031,4,2.13217024750115,1.28217024750115,14,1,0,13,0.835211072154221,1.14313842522633,50.0694444444444,2827,57,64,0,0,5.24508276648073
11.2,NAVIGATION,4,10.4993935934959,1.11613316392015,3.98109021880558,0.781763165358718,1.09770271599586,0.0260085003668589,1.34788031423702,0.655555791710783,0.502083075972637,0.00905536083186933,0.825786177399145,54.5422475809459,1.25099554714963,0.787010198747794,5.6127338845434,13.2818639703999,0.126207373647935,0.595619640023218,0.0169531395349896,0.609080015830917,1,12.5,0.670000000000033,4,2.04983374289712,1.19983374289712,14,1,0,14,0.860233612699101,1.1782380690109,50.0694444444444,2827,57,64,0,0,5.12496731809224
11.3,NAVIGATION,4,10.5735151771119,1.20996132273486,3.98414582816284,0.726505764727165,0.885506631656457,0.0318911517960655,1.14584015746187,0.613120136470305,0.327170084359747,0.00715596307150414,0.694987606833971,50.6331491752967,2.9856139674135,-12.0095456633236,5.55976575858318,13.4014951898767,0.11338562825686,0.55833654729671,0.0247351887245613,0.570269962652474,1,12.5,0.805000000000035,4,1.96865151829725,1.11865151829725,15,1,0,14,0.897009135472827,1.21410674439642,50.2951388888889,2838,59,65,0,0,5.04281994706914
11.4,NAVIGATION,4,10.6420690940378,1.28274072773585,3.98767801852375,0.672185624226346,0.672695884587627,0.035394247254149,0.9516333428881,0.567333042274128,0.153110775575879,0.00473343902161702,0.587649637027401,45.0217385424365,3.21540628067417,-11.9496610657245,5.50935560650102,13.5015795659644,0.104852581952219,0.519585109011748,0.030660808232532,0.530945227504936,1,12.5,0.940000000000037,4,1.88932005997018,1.03932005997018,15,1,0,15,0.918200160459755,1.25,50.4166666666667,2845,59,66,0,0,1.54596847956313
11.5,NAVIGATION,4,10.7050813699333,1.33276914580941,3.99128804617903,0.615904222184578,0.440549857558787,0.0354346241130437,0.758075062566953,0.517711285016922,-0.0198909285984076,0.00196520332044409,0.518096984838235,38.0217385424365,3.45496647507806,-11.8822974182552,5.46008358848,13.5822076729098,0.0981929371676557,0.460440786157195,0.0334694207925996,0.471982809639142,1,12.5,1.07500000000004,4,1.81335427295145,0.963354272951448,16,1,0,16,0.937150282538561,1.25,50.4166666666667,2845,59,66,0,0,1.31368729188929
11.6,NAVIGATION,4,10.7617349978183,1.35911217457808,3.99483676618082,0.552384285200053,0.203052794751566,0.0362382644250506,0.589637217109754,0.465908271686398,-0.192243909866408,-0.00109242586938716,0.504013325122273,31.0217385424365,3.64294185249552,-11.8255118857215,5.41171255658978,13.6449783061866,0.086476013513655,0.395296704617974,0.0373306902944378,0.40636334238327,1,12.5,1.21000000000004,4,1.74465650412928,0.894656504129283,17,1,0,16,0.955186789937835,1.25,50.4340277777778,2847,58,67,0,1,1.2329314396329
11.7,NAVIGATION,4,10.8118794951791,1.36144605013027,3.99855440507404,0.485510451061186,-0.0391708417329879,0.0363975278011562,0.488446038945699,0.413302064894304,-0.3643466731935,-0.00472789990035178,0.550989517278264,24.0217385424365,3.6111023830564,-11.8346441102503,5.36377961979263,13.6956918654129,0.0722083861668818,0.325175831460512,0.041125427701508,0.335625793410597,1,12.5,1.34500000000004,4,1.6882012324087,0.838201232408702,17,1,0,17,0.951862504292757,1.25,50.6944444444444,2861,59,68,1,1,1.18070282658716
11.8,NAVIGATION,4,10.855602185067,1.33881823968596,4.00229964036975,0.423965546400907,-0.284158576996006,0.0377249588560866,0.51177734800996,0.363745261439075,-0.537335030280899,-0.00891711583771266,0.648936872847597,17.0217385424365,3.32427824343393,-11.917300956505,5.31575662023287,13.7453991780694,0.0602202849618315,0.253176453284892,0.0466420746937993,0.264386615301425,1,12.5,1.48000000000004,4,1.6504489545417,0.800448954541701,17,1,0,17,0.931307686590651,1.25,50.6944444444444,2861,59,68,1,1,1.1396053884313
11.9,NAVIGATION,4,10.8938242894743,1.29280108602765,4.00597584445052,0.369563261743241,-0.520899947587359,0.036615867336413,0.639730006774432,0.321714473426061,-0.712270692456894,-0.013645224827177,0.781675082054823,10.0217385424365,2.69432808175771,-12.0743586963354,5.26729539189835,13.8055302300299,0.0478487883171799,0.191370744869535,0.0502610921635899,0.203564353266528,1,12.5,1.61500000000005,4,1.63818444137544,0.788184441375441,18,1,0,18,0.895509917477942,1.25,51.4583333333333,2906,58,69,1,1,1.12635564218028
12,NAVIGATION,4,10.9277996650063,1.22297314186235,4.00930010908968,0.330636422241331,-0.758706900957481,0.0320101043272379,0.828239851765231,0.293655095799441,-0.889948742904155,-0.0186962895363318,0.937332188462602,3.02173854243649,1.64381157298795,-12.2611113575139,5.21756322779668,13.8833343483573,0.0369813264418897,0.131241841946674,0.0507063938635696,0.145475695432622,1,12.5,1.75000000000005,4,1.65820918299892,0.808209182998919,18,1,0,18,0.840706568921017,1.25,52.7256944444444,2981,56,70,1,1,1.13799716463943
